{
    "tennis_locations": [
      {
        "name": "Ray's Racquets",
        "city": "Sun City",
        "state": "Arizona",
        "coordinates": {
          "latitude": 33.6379199,
          "longitude": -112.2719668
        }
      },
      {
        "name": "Lakewood Tennis Center",
        "city": "Lakewood",
        "state": "California",
        "coordinates": {
          "latitude": 33.8354900,
          "longitude": -118.1548940
        }
      },
      {
        "name": "Racket Stringing Workshop",
        "city": "La Jolla",
        "state": "California",
        "coordinates": {
          "latitude": 32.8328,
          "longitude": -117.2713
        }
      },
      {
        "name": "Santa Monica Tennis Center",
        "city": "Santa Monica",
        "state": "California",
        "coordinates": {
          "latitude": 34.0194,
          "longitude": -118.4912
        }
      },
      {
        "name": "Tennis Station",
        "city": "Burlingame",
        "state": "California",
        "coordinates": {
          "latitude": 37.5841,
          "longitude": -122.3661
        }
      },
      {
        "name": "Mriva Sports",
        "city": "Walnut Creek",
        "state": "California",
        "coordinates": {
          "latitude": 37.9063,
          "longitude": -122.0653
        }
      },
      {
        "name": "Racquet Koop",
        "city": "New Haven",
        "state": "Connecticut",
        "coordinates": {
          "latitude": 41.3083,
          "longitude": -72.9279
        }
      },
      {
        "name": "Al's Tennis Shop",
        "city": "Riverview",
        "state": "Florida",
        "coordinates": {
          "latitude": 27.8661,
          "longitude": -82.3265
        }
      },
      {
        "name": "Racquet Stringing LLC",
        "city": "Gainesville",
        "state": "Florida",
        "coordinates": {
          "latitude": 29.6516,
          "longitude": -82.3248
        }
      },
      {
        "name": "Jupiter Strings",
        "city": "Palm Beach Gardens",
        "state": "Florida",
        "coordinates": {
          "latitude": 26.8234,
          "longitude": -80.1387
        }
      },
      {
        "name": "MP Tennis & Sports",
        "city": "Tampa Bay",
        "state": "Florida",
        "coordinates": {
          "latitude": 27.9506,
          "longitude": -82.4572
        }
      },
      {
        "name": "String MD",
        "city": "Odessa",
        "state": "Florida",
        "coordinates": {
          "latitude": 28.1836,
          "longitude": -82.5865
        }
      },
      {
        "name": "Total Tennis",
        "city": "Sarasota",
        "state": "Florida",
        "coordinates": {
          "latitude": 27.3364,
          "longitude": -82.5307
        }
      },
      {
        "name": "Vero Beach Specialty Tennis Shop",
        "city": "Vero Beach",
        "state": "Florida",
        "coordinates": {
          "latitude": 27.6386,
          "longitude": -80.3973
        }
      },
      {
        "name": "Wrigley's Tennis",
        "city": "Punta Gorda",
        "state": "Florida",
        "coordinates": {
          "latitude": 26.9298,
          "longitude": -82.0454
        }
      },
      {
        "name": "Tennis Frenzy",
        "city": "Stuart",
        "state": "Florida",
        "coordinates": {
          "latitude": 27.1973,
          "longitude": -80.2528
        }
      },
      {
        "name": "Tennis Strings Mobile",
        "city": "Pembroke Pines",
        "state": "Florida",
        "coordinates": {
          "latitude": 26.0073,
          "longitude": -80.2962
        }
      },
      {
        "name": "Melbourne Tennis",
        "city": "Melbourne",
        "state": "Florida",
        "coordinates": {
          "latitude": 28.0836,
          "longitude": -80.6081
        }
      },
      {
        "name": "Hobson Tennis Center",
        "city": "Bradenton",
        "state": "Florida",
        "coordinates": {
          "latitude": 27.4989,
          "longitude": -82.5748
        }
      },
      {
        "name": "Wicked Serve",
        "city": "Atlanta",
        "state": "Georgia",
        "coordinates": {
          "latitude": 33.7490,
          "longitude": -84.3880
        }
      },
      {
        "name": "Jaxon Dunwoody Stringing",
        "city": "Dunwoody",
        "state": "Georgia",
        "coordinates": {
          "latitude": 33.9462,
          "longitude": -84.3346
        }
      },
      {
        "name": "Premier Racquet Sports",
        "city": "Dunwoody",
        "state": "Georgia",
        "coordinates": {
          "latitude": 33.9462,
          "longitude": -84.3346
        }
      },
      {
        "name": "Serious Tennis",
        "city": "Atlanta",
        "state": "Georgia",
        "coordinates": {
          "latitude": 33.7490,
          "longitude": -84.3880
        }
      },
      {
        "name": "Classic City Racquet Sports",
        "city": "Athens",
        "state": "Georgia",
        "coordinates": {
          "latitude": 33.9519,
          "longitude": -83.3576
        }
      },
      {
        "name": "Sutton Total Tennis",
        "city": "Roswell",
        "state": "Georgia",
        "coordinates": {
          "latitude": 34.0232,
          "longitude": -84.3616
        }
      },
      {
        "name": "AM Stringing",
        "city": "Kailua-Kona",
        "state": "Hawaii",
        "coordinates": {
          "latitude": 19.6400,
          "longitude": -155.9969
        }
      },
      {
        "name": "Chicago Stringing",
        "city": "Chicago",
        "state": "Illinois",
        "coordinates": {
          "latitude": 41.8781,
          "longitude": -87.6298
        }
      },
      {
        "name": "Holder & Son Tennis",
        "city": "Aurora",
        "state": "Illinois",
        "coordinates": {
          "latitude": 41.7606,
          "longitude": -88.3201
        }
      },
      {
        "name": "Left Hand Strings",
        "city": "Chicago",
        "state": "Illinois",
        "coordinates": {
          "latitude": 41.8781,
          "longitude": -87.6298
        }
      },
      {
        "name": "The Racquet Man",
        "city": "Northbrook",
        "state": "Illinois",
        "coordinates": {
          "latitude": 42.1278,
          "longitude": -87.8289
        }
      },
      {
        "name": "Noah Borden Stringing",
        "city": "Ruston",
        "state": "Louisiana",
        "coordinates": {
          "latitude": 32.5232,
          "longitude": -92.6379
        }
      },
      {
        "name": "Second Serve Tennis Center",
        "city": "Multiple Locations",
        "state": "Louisiana",
        "coordinates": {
          "latitude": 30.9843,
          "longitude": -91.9623
        }
      },
      {
        "name": "Lakewood Country Club",
        "city": "Rockville",
        "state": "Maryland",
        "coordinates": {
          "latitude": 39.0840,
          "longitude": -77.1528
        }
      },
      {
        "name": "Annapolis Tennis Lab",
        "city": "Annapolis",
        "state": "Maryland",
        "coordinates": {
          "latitude": 38.9784,
          "longitude": -76.5025
        }
      },
      {
        "name": "Holabird Sports",
        "city": "Baltimore",
        "state": "Maryland",
        "coordinates": {
          "latitude": 39.2904,
          "longitude": -76.6122
        }
      },
      {
        "name": "JTCC",
        "city": "College Park",
        "state": "Maryland",
        "coordinates": {
          "latitude": 38.9807,
          "longitude": -76.9370
        }
      },
      {
        "name": "Precision Stringing",
        "city": "Laurel",
        "state": "Maryland",
        "coordinates": {
          "latitude": 39.0993,
          "longitude": -76.8483
        }
      },
      {
        "name": "String That Thing LLC",
        "city": "Severna Park",
        "state": "Maryland",
        "coordinates": {
          "latitude": 39.0773,
          "longitude": -76.5441
        }
      },
      {
        "name": "Tennis Topia",
        "city": "Rockville",
        "state": "Maryland",
        "coordinates": {
          "latitude": 39.0840,
          "longitude": -77.1528
        }
      },
      {
        "name": "Woodmont Country Club",
        "city": "Rockville",
        "state": "Maryland",
        "coordinates": {
          "latitude": 39.0840,
          "longitude": -77.1528
        }
      },
      {
        "name": "Advantage Stringing",
        "city": "Falcon Heights",
        "state": "Minnesota",
        "coordinates": {
          "latitude": 44.9898,
          "longitude": -93.1719
        }
      },
      {
        "name": "Stringers Corner",
        "city": "Apple Valley",
        "state": "Minnesota",
        "coordinates": {
          "latitude": 44.7319,
          "longitude": -93.2177
        }
      },
      {
        "name": "Precision Racquet Stringing",
        "city": "New Hyde Park",
        "state": "New York",
        "coordinates": {
          "latitude": 40.7351,
          "longitude": -73.6879
        }
      },
      {
        "name": "Reis Tennis Center",
        "city": "Cornell",
        "state": "New York",
        "coordinates": {
          "latitude": 42.4534,
          "longitude": -76.4735
        }
      },
      {
        "name": "High Strung Tennis",
        "city": "Raleigh",
        "state": "North Carolina",
        "coordinates": {
          "latitude": 35.7796,
          "longitude": -78.6382
        }
      },
      {
        "name": "DT's Savvy Stringing",
        "city": "Lexington",
        "state": "South Carolina",
        "coordinates": {
          "latitude": 33.9816,
          "longitude": -81.2362
        }
      },
      {
        "name": "Bay Area Racquet Club",
        "city": "Austin",
        "state": "Texas",
        "coordinates": {
          "latitude": 30.2672,
          "longitude": -97.7431
        }
      },
      {
        "name": "Bush Tennis Center",
        "city": "Midland",
        "state": "Texas",
        "coordinates": {
          "latitude": 31.9974,
          "longitude": -102.0779
        }
      },
      {
        "name": "Dave's Tennis",
        "city": "Leander",
        "state": "Texas",
        "coordinates": {
          "latitude": 30.5788,
          "longitude": -97.8536
        }
      },
      {
        "name": "Drop the Racquet",
        "city": "Burlington",
        "state": "Vermont",
        "coordinates": {
          "latitude": 44.4759,
          "longitude": -73.2121
        }
      },
      {
        "name": "Capital Stringing and Tennis",
        "city": "Arlington",
        "state": "Virginia",
        "coordinates": {
          "latitude": 38.8816,
          "longitude": -77.0910
        }
      },
      {
        "name": "Tennis Topia",
        "city": "McLean",
        "state": "Virginia",
        "coordinates": {
          "latitude": 38.9338,
          "longitude": -77.1772
        }
      },
      {
        "name": "Elite Sports Clubs",
        "city": "Milwaukee",
        "state": "Wisconsin",
        "coordinates": {
          "latitude": 43.0389,
          "longitude": -87.9065
        }
      },
      {
        "name": "Tennis Zone Plus",
        "city": "Washington",
        "state": "D.C.",
        "coordinates": {
          "latitude": 38.9072,
          "longitude": -77.0369
        }
      }
    ]
  }